[
  {
    "id": 1,
    "src": "./images/slide04-1.jpg",
    "name": "유행이 끝나면 깨워주세요",
    "location": "[부연]",
    "address": "인천 중구 개항로106번길 8"
  },
  {
    "id": 2,
    "src": "./images/slide04-2.jpg",
    "name": "vita nova new life",
    "location": "[인천 아트플랫폼]",
    "address": "인천 중구 제물량로218번길 3"
  },
  {
    "id": 3,
    "src": "./images/slide04-3.jpg",
    "name": "Alice in Wonderyarn",
    "location": "[현대의상박물관]",
    "address": "인천 연수구 송도문화로 119-2"
  },
  {
    "id": 4,
    "src": "./images/slide04-4.jpg",
    "name": "Dear future me 展",
    "location": "[롯데갤러리 인천점]",
    "address": "인천 미추홀구 연남로 35 5층"
  },
  {
    "id": 5,
    "src": "./images/slide04-5.gif",
    "name": "놀이터를 부탁해",
    "location": "[인천도시역사관]",
    "address": "인천 연수구 인천타워대로 238"
  },
  {
    "id": 6,
    "src": "./images/slide04-6.jpg",
    "name": "공중용사 안창남",
    "location": "[영종역사관]",
    "address": "인천 중구 구읍로 63"
  },
  {
    "id": 7,
    "src": "./images/slide04-7.jpg",
    "name": "IAAS",
    "location": "[인천아시아아트쇼]",
    "address": "인천 연수구 송도과학로 56"
  },
  {
    "id": 8,
    "src": "./images/slide4-8.jpg",
    "name": "한바탕의 봄 꿈",
    "location": "[컨벤시아 갤러리]",
    "address": "인천 연수구 센트럴로 123 남문"
  }
]