[
  {
    "id": 1,
    "src": "./images/slide03-1.jpg",
    "name": "harmgerdes : panorama",
    "location": "[페레스프로젝트 서울]",
    "address": "서울 중구 동호로 249 신라호텔"
  },
  {
    "id": 2,
    "src": "./images/slide03-2.gif",
    "name": "마리아 스바르보바 사진전",
    "location": "[예술의 전당 한가람미술관]",
    "address": "서울 서초구 남부순환로 2406"
  },
  {
    "id": 3,
    "src": "./images/slide03-3.jpg",
    "name": "국가무형문화재: 한옥관조",
    "location": "[은평역사한옥박물관]",
    "address": "서울 은평구 연서로50길 8"
  },
  {
    "id": 4,
    "src": "./images/slide03-4.jpg",
    "name": "마리아 스바르보바 사진전",
    "location": "[예술의 전당 한가람미술관]",
    "address": "서울 서초구 남부순환로 2406"
  },
  {
    "id": 5,
    "src": "./images/slide03-5.jpg",
    "name": "서울살이와 집",
    "location": "[서울생활사박물관]",
    "address": "서울 노원구 동일로174길 27"
  },
  {
    "id": 6,
    "src": "./images/slide03-6.jpeg",
    "name": "나탈리 카르푸셴코 사진전",
    "location": "[그라운드시소 성수]",
    "address": "서울 성동구 아차산로17길 49"
  },
  {
    "id": 7,
    "src": "./images/slide03-7.jpg",
    "name": "Gustav Klimt, Gold in Motion",
    "location": "[예술의전당 디자인미술관]",
    "address": "서울 서초구 남부순환로 2406"
  },
  {
    "id": 7,
    "src": "./images/slide03-8.jpg",
    "name": "눈물의 엔트로피",
    "location": "[디스크리트레이블]",
    "address": "서울 성동구 성수일로8길 39-1"
  }
]