[
  {
    "id": 1,
    "src": "./images/slide02-1.jpg",
    "name": "The other face of material",
    "location": "[서정아트 강남]",
    "address": "서울 강남구 봉은사로47길 12"
  },
  {
    "id": 2,
    "src": "./images/slide02-2.jpg",
    "name": "Tube Seoul",
    "location": "[K현대미술관]",
    "address": "서울 강남구 선릉로 807"
  },
  {
    "id": 3,
    "src": "./images/slide02-3.jpg",
    "name": "COLOR IN LIFE",
    "location": "[마이아트뮤지엄]",
    "address": "서울 강남구 테헤란로 518"
  },
  {
    "id": 4,
    "src": "./images/slide02-4.png",
    "name": "Touchable moments",
    "location": "[KLAMP GALLERY]",
    "address": "서울 강남구 논현로26길 39 B1"
  },
  {
    "id": 5,
    "src": "./images/slide02-5.webp",
    "name": "데미안",
    "location": "[K현대미술관]",
    "address": "서울 강남구 선릉로 807"
  },
  {
    "id": 6,
    "src": "./images/slide02-6.jpg",
    "name": "조우 : Encounter",
    "location": "[엔버갤러리]",
    "address": "서울 강남구 압구정로 421-1"
  },
  {
    "id": 7,
    "src": "./images/slide02-7.jpg",
    "name": "프리다 칼로 사진전",
    "location": "[현대백화점 무역센터점]",
    "address": "서울 강남구 테헤란로 517"
  },
  {
    "id": 8,
    "src": "./images/slide02-8.png",
    "name": "두꺼비에 대한 단상",
    "location": "[GALLERY SAEM]",
    "address": "서울 강남구 테헤란로13길 30"
  }
]